[{"global_id":637377476,"Latitude_WGS84":"55.8808052801520820","ID":"00125608","Name":"Кафетерий","IsNetObject":"нет","TypeObject":"кафетерий","AdmArea":"Северо-Восточный административный округ","District":"Алтуфьевский район","Address":"Алтуфьевское шоссе, дом 56","PublicPhone":[{"PublicPhone":"(495) 707-04-39"}],"SeatsCount":6,"SocialPrivileges":"нет","Longitude_WGS84":"37.5878333620157080","geoData":{"type":"Point","coordinates":[37.58783336201571,55.88080528015208]}},{"global_id":637383119,"Latitude_WGS84":"55.7017025763096640","ID":"00155475","Name":"СЕРП И ХОЛДЕР","IsNetObject":"нет","TypeObject":"кафетерий","AdmArea":"Юго-Западный административный округ","District":"Академический район","Address":"улица Вавилова, дом 17","PublicPhone":[{"PublicPhone":"(916) 721-49-84"}],"SeatsCount":36,"SocialPrivileges":"нет","Longitude_WGS84":"37.5804064469969960","geoData":{"type":"Point","coordinates":[37.580406446996996,55.701702576309664]}},{"global_id":637383624,"Latitude_WGS84":"55.6459678263895600","ID":"00120658","Name":"Свежие продукты «Пицца»","IsNetObject":"нет","TypeObject":"кафетерий","AdmArea":"Южный административный округ","District":"Нагорный район","Address":"Варшавское шоссе, дом 100","PublicPhone":[{"PublicPhone":"(916) 793-57-90"}],"SeatsCount":2,"SocialPrivileges":"нет","Longitude_WGS84":"37.6189751923084260","geoData":{"type":"Point","coordinates":[37.618975192308426,55.64596782638956]}},{"global_id":637386922,"Latitude_WGS84":"55.7325921000771910","ID":"000083940","Name":"Тирольские пироги","IsNetObject":"нет","TypeObject":"кафетерий","AdmArea":"Центральный административный округ","District":"Таганский район","Address":"город Москва, Воронцовская улица, дом 48","PublicPhone":[{"PublicPhone":"(915) 353-27-92"}],"SeatsCount":30,"SocialPrivileges":"нет","Longitude_WGS84":"37.6638515952956610","geoData":{"type":"Point","coordinates":[37.66385159529566,55.73259210007719]}},{"global_id":637388390,"Latitude_WGS84":"55.7604300696989200","ID":"00155743","Name":"Перекресток-экспресс","IsNetObject":"да","OperatingCompany":"Перекресток","TypeObject":"кафетерий","AdmArea":"Центральный административный округ","District":"Тверской район","Address":"город Москва, Тверская улица, дом 6, строение 1","PublicPhone":[{"PublicPhone":"(925) 005-46-01"}],"SeatsCount":10,"SocialPrivileges":"нет","Longitude_WGS84":"37.6112639119794780","geoData":{"type":"Point","coordinates":[37.61126391197948,55.76043006969892]}},{"global_id":637388468,"Latitude_WGS84":"55.7596935467494820","ID":"00155740","Name":"Перекресток-экспресс","IsNetObject":"да","OperatingCompany":"Перекресток","TypeObject":"кафетерий","AdmArea":"Центральный административный округ","District":"Тверской район","Address":"город Москва, Тверская улица, дом 9","PublicPhone":[{"PublicPhone":"(925) 005-46-01"}],"SeatsCount":10,"SocialPrivileges":"нет","Longitude_WGS84":"37.6106528604818350","geoData":{"type":"Point","coordinates":[37.610652860481835,55.75969354674948]}},{"global_id":637389100,"Latitude_WGS84":"55.7686472337689030","ID":"00157901","Name":"АВ-Дейли","IsNetObject":"да","OperatingCompany":"Азбука Вкуса","TypeObject":"кафетерий","AdmArea":"Центральный административный округ","District":"Тверской район","Address":"город Москва, Тверская улица, дом 27, строение 2","PublicPhone":[{"PublicPhone":"(495) 504-34-78"}],"SeatsCount":8,"SocialPrivileges":"нет","Longitude_WGS84":"37.5975504350354800","geoData":{"type":"Point","coordinates":[37.59755043503548,55.7686472337689]}},{"global_id":637389126,"Latitude_WGS84":"55.7686472337689030","ID":"00155742","Name":"Перекресток-экпресс","IsNetObject":"да","OperatingCompany":"Перекресток","TypeObject":"кафетерий","AdmArea":"Центральный административный округ","District":"Тверской район","Address":"город Москва, Тверская улица, дом 27, строение 2","PublicPhone":[{"PublicPhone":"(925) 005-46-01"}],"SeatsCount":10,"SocialPrivileges":"нет","Longitude_WGS84":"37.5975504350354800","geoData":{"type":"Point","coordinates":[37.59755043503548,55.7686472337689]}},{"global_id":637389310,"Latitude_WGS84":"55.7715639199224430","ID":"00155741","Name":"Перекресток-экспресс","IsNetObject":"да","OperatingCompany":"Перекресток","TypeObject":"кафетерий","AdmArea":"Центральный административный округ","District":"Тверской район","Address":"город Москва, 1-я Тверская-Ямская улица, дом 7","PublicPhone":[{"PublicPhone":"(925) 005-46-01"}],"SeatsCount":10,"SocialPrivileges":"нет","Longitude_WGS84":"37.5927057446043020","geoData":{"type":"Point","coordinates":[37.5927057446043,55.77156391992244]}},{"global_id":637389425,"Latitude_WGS84":"55.7720948244574830","ID":"00157659","Name":"МАГНОЛИЯ","IsNetObject":"да","OperatingCompany":"Магнолия","TypeObject":"кафетерий","AdmArea":"Центральный административный округ","District":"Тверской район","Address":"город Москва, 1-я Тверская-Ямская улица, дом 9","PublicPhone":[{"PublicPhone":"(499) 251-11-96"}],"SeatsCount":10,"SocialPrivileges":"нет","Longitude_WGS84":"37.5918435291079970","geoData":{"type":"Point","coordinates":[37.591843529108,55.77209482445748]}},{"global_id":637390416,"Latitude_WGS84":"55.8629842437377920","ID":"00158030","Name":"Бистро-пекарня","IsNetObject":"нет","TypeObject":"кафетерий","AdmArea":"Северо-Восточный административный округ","District":"район Отрадное","Address":"улица Декабристов, дом 20, корпус 1","PublicPhone":[{"PublicPhone":"(909) 989-99-90"}],"SeatsCount":1,"SocialPrivileges":"нет","Longitude_WGS84":"37.6069344283334250","geoData":{"type":"Point","coordinates":[37.606934428333425,55.86298424373779]}},{"global_id":637390725,"Latitude_WGS84":"55.7347348982145900","ID":"00152060","Name":"French kiss","IsNetObject":"нет","TypeObject":"кафетерий","AdmArea":"Центральный административный округ","District":"район Якиманка","Address":"город Москва, улица Большая Якиманка, дом 32","PublicPhone":[{"PublicPhone":"(495) 627-60-31"}],"SeatsCount":4,"SocialPrivileges":"нет","Longitude_WGS84":"37.6123062094096880","geoData":{"type":"Point","coordinates":[37.61230620940969,55.73473489821459]}},{"global_id":637399494,"Latitude_WGS84":"55.7350380748283030","ID":"00157035","Name":"Кофе с собой","IsNetObject":"нет","TypeObject":"кафетерий","AdmArea":"Центральный административный округ","District":"Таганский район","Address":"город Москва, Краснохолмская набережная, дом 13, строение 1","PublicPhone":[{"PublicPhone":"(926) 690-01-23"}],"SeatsCount":0,"SocialPrivileges":"нет","Longitude_WGS84":"37.6519766896737740","geoData":{"type":"Point","coordinates":[37.65197668967377,55.7350380748283]}},{"global_id":637401208,"Latitude_WGS84":"55.7908336265042310","ID":"000025672","Name":"БОГДАРЕВ АЛЕКСАНДР ЮРЬЕВИЧ","IsNetObject":"нет","TypeObject":"кафетерий","AdmArea":"Северо-Восточный административный округ","District":"район Марьина Роща","Address":"Лазаревский переулок, дом 4","PublicPhone":[{"PublicPhone":"нет телефона"}],"SeatsCount":6,"SocialPrivileges":"да","Longitude_WGS84":"37.6130193515555580","geoData":{"type":"Point","coordinates":[37.61301935155556,55.79083362650423]}},{"global_id":637402336,"Latitude_WGS84":"55.8046226626881460","ID":"00141457","Name":"Пирог Хауз","IsNetObject":"нет","TypeObject":"кафетерий","AdmArea":"Северный административный округ","District":"район Сокол","Address":"город Москва, Ленинградский проспект, дом 75, корпус 1","PublicPhone":[{"PublicPhone":"нет телефона"}],"SeatsCount":5,"SocialPrivileges":"нет","Longitude_WGS84":"37.5135306606518380","geoData":{"type":"Point","coordinates":[37.51353066065184,55.804622662688146]}},{"global_id":637407815,"Latitude_WGS84":"55.7094734047085960","ID":"00119954","Name":"Канафеева Диана Шамилевна","IsNetObject":"нет","TypeObject":"кафетерий","AdmArea":"Южный административный округ","District":"Донской район","Address":"Ленинский проспект, дом 37А","PublicPhone":[{"PublicPhone":"(916) 684-25-28"}],"SeatsCount":0,"SocialPrivileges":"нет","Longitude_WGS84":"37.5862934348583830","geoData":{"type":"Point","coordinates":[37.58629343485838,55.709473404708596]}},{"global_id":637408173,"Latitude_WGS84":"55.6896988275361760","ID":"00145372","Name":"Кафе Жираф","IsNetObject":"нет","TypeObject":"кафетерий","AdmArea":"Юго-Западный административный округ","District":"Гагаринский район","Address":"Ленинский проспект, дом 68/10","PublicPhone":[{"PublicPhone":"(926) 907-71-12"}],"SeatsCount":30,"SocialPrivileges":"нет","Longitude_WGS84":"37.5442189326325750","geoData":{"type":"Point","coordinates":[37.544218932632575,55.689698827536176]}},{"global_id":637418310,"Latitude_WGS84":"55.7447521630646390","ID":"00141690","Name":"Магазин кулинарии с кофетерием","IsNetObject":"нет","TypeObject":"кафетерий","AdmArea":"Центральный административный округ","District":"район Замоскворечье","Address":"город Москва, улица Большая Ордынка, дом 7","PublicPhone":[{"PublicPhone":"(495) 951-62-04"}],"SeatsCount":7,"SocialPrivileges":"нет","Longitude_WGS84":"37.6249254315822060","geoData":{"type":"Point","coordinates":[37.624925431582206,55.74475216306464]}},{"global_id":637418366,"Latitude_WGS84":"55.7378608743885020","ID":"000025645","Name":"Съестная лавка","IsNetObject":"нет","TypeObject":"кафетерий","AdmArea":"Центральный административный округ","District":"район Замоскворечье","Address":"город Москва, улица Большая Ордынка, дом 7","PublicPhone":[{"PublicPhone":"(915) 268-38-31"}],"SeatsCount":12,"SocialPrivileges":"нет","Longitude_WGS84":"37.6244258063789590","geoData":{"type":"Point","coordinates":[37.62442580637896,55.7378608743885]}},{"global_id":637419428,"Latitude_WGS84":"55.8229995873803020","ID":"00136764","Name":"БИСТРО","IsNetObject":"нет","TypeObject":"кафетерий","AdmArea":"Восточный административный округ","District":"район Метрогородок","Address":"Открытое шоссе, дом 24, корпус 11","PublicPhone":[{"PublicPhone":"(965) 222-14-27"}],"SeatsCount":4,"SocialPrivileges":"нет","Longitude_WGS84":"37.7575405203428150","geoData":{"type":"Point","coordinates":[37.757540520342815,55.8229995873803]}},{"global_id":637419857,"Latitude_WGS84":"55.7890085419813000","ID":"000081393","Name":"ЧАЙНАЯ","IsNetObject":"нет","TypeObject":"кафетерий","AdmArea":"Восточный административный округ","District":"район Измайлово","Address":"3-я Парковая улица, дом 4","PublicPhone":[{"PublicPhone":"(985) 433-37-08"}],"SeatsCount":4,"SocialPrivileges":"нет","Longitude_WGS84":"37.7846835881617000","geoData":{"type":"Point","coordinates":[37.7846835881617,55.7890085419813]}},{"global_id":637422963,"Latitude_WGS84":"55.8191107849740000","ID":"000025694","Name":"ГЕЛЕНА","IsNetObject":"нет","TypeObject":"кафетерий","AdmArea":"Восточный административный округ","District":"район Богородское","Address":"3-й проезд Подбельского, дом 22, корпус 3","PublicPhone":[{"PublicPhone":"(499) 160-05-50"}],"SeatsCount":16,"SocialPrivileges":"нет","Longitude_WGS84":"37.7230575241975000","geoData":{"type":"Point","coordinates":[37.7230575241975,55.819110784974]}},{"global_id":637423512,"Latitude_WGS84":"55.7341265551315530","ID":"00112003","Name":"Французская пекарня","IsNetObject":"нет","TypeObject":"кафетерий","AdmArea":"Центральный административный округ","District":"район Якиманка","Address":"город Москва, улица Большая Полянка, дом 30","PublicPhone":[{"PublicPhone":"(903) 221-88-40"}],"SeatsCount":0,"SocialPrivileges":"нет","Longitude_WGS84":"37.6189561410812910","geoData":{"type":"Point","coordinates":[37.61895614108129,55.73412655513155]}},{"global_id":637423866,"Latitude_WGS84":"55.7869681108609970","ID":"00087615","Name":"МАГАЗИН. КАФЕТЕРИЙ","IsNetObject":"нет","TypeObject":"кафетерий","AdmArea":"Северный административный округ","District":"район Беговой","Address":"город Москва, улица Правды, дом 17/19","PublicPhone":[{"PublicPhone":"(916) 512-92-65"}],"SeatsCount":38,"SocialPrivileges":"нет","Longitude_WGS84":"37.5794842594631580","geoData":{"type":"Point","coordinates":[37.57948425946316,55.786968110861]}},{"global_id":637424690,"Latitude_WGS84":"55.6805767766215280","ID":"00153091","Name":"Французская пекарня","IsNetObject":"нет","TypeObject":"кафетерий","AdmArea":"Юго-Западный административный округ","District":"Академический район","Address":"Профсоюзная улица, дом 13/12","PublicPhone":[{"PublicPhone":"(968) 623-28-84"}],"SeatsCount":12,"SocialPrivileges":"нет","Longitude_WGS84":"37.5665071396472920","geoData":{"type":"Point","coordinates":[37.56650713964729,55.68057677662153]}},{"global_id":637426494,"Latitude_WGS84":"55.8487751761908910","ID":"000073274","Name":"Добрынинский и партнёры","IsNetObject":"да","OperatingCompany":"Добрынинский и партнёры","TypeObject":"кафетерий","AdmArea":"Северо-Западный административный округ","District":"район Северное Тушино","Address":"бульвар Яна Райниса, дом 2, корпус 1","PublicPhone":[{"PublicPhone":"(495) 641-40-00"}],"SeatsCount":7,"SocialPrivileges":"нет","Longitude_WGS84":"37.4211565560165480","geoData":{"type":"Point","coordinates":[37.42115655601655,55.84877517619089]}},{"global_id":637427318,"Latitude_WGS84":"55.7877176784195260","ID":"00149427","Name":"Французская пекарня","IsNetObject":"нет","TypeObject":"кафетерий","AdmArea":"Восточный административный округ","District":"район Сокольники","Address":"Русаковская улица, дом 29","PublicPhone":[{"PublicPhone":"нет телефона"}],"SeatsCount":0,"SocialPrivileges":"нет","Longitude_WGS84":"37.6772144154598290","geoData":{"type":"Point","coordinates":[37.67721441545983,55.787717678419526]}},{"global_id":637435384,"Latitude_WGS84":"55.7046710000000000","ID":"00129762","Name":"ПаПан","IsNetObject":"нет","TypeObject":"кафетерий","AdmArea":"Юго-Восточный административный округ","District":"Южнопортовый район","Address":"улица Трофимова, дом 35/20","PublicPhone":[{"PublicPhone":"(495) 679-96-22"}],"SeatsCount":40,"SocialPrivileges":"нет","Longitude_WGS84":"37.6848830000000000","geoData":{"type":"Point","coordinates":[37.684883,55.704671]}},{"global_id":637436285,"Latitude_WGS84":"55.8267233382960000","ID":"000071993","Name":"Шантимель","IsNetObject":"да","OperatingCompany":"Шантимель","TypeObject":"кафетерий","AdmArea":"Северо-Западный административный округ","District":"район Покровское-Стрешнево","Address":"Тушинская улица, дом 13","PublicPhone":[{"PublicPhone":"(495) 491-04-96"}],"SeatsCount":10,"SocialPrivileges":"нет","Longitude_WGS84":"37.4465805187670000","geoData":{"type":"Point","coordinates":[37.446580518767,55.826723338296]}},{"global_id":637436751,"Latitude_WGS84":"55.6888745851180150","ID":"00155963","Name":"Time to Coffe","IsNetObject":"нет","TypeObject":"кафетерий","AdmArea":"Юго-Западный административный округ","District":"Академический район","Address":"улица Дмитрия Ульянова, дом 14, корпус 1","PublicPhone":[{"PublicPhone":"(916) 416-90-00"}],"SeatsCount":24,"SocialPrivileges":"нет","Longitude_WGS84":"37.5688470440389320","geoData":{"type":"Point","coordinates":[37.56884704403893,55.688874585118015]}},{"global_id":637439876,"Latitude_WGS84":"55.7728655065951170","ID":"00157772","Name":"АВ-ДЕЙЛИ","IsNetObject":"да","OperatingCompany":"Азбука Вкуса","TypeObject":"кафетерий","AdmArea":"Центральный административный округ","District":"Тверской район","Address":"город Москва, Цветной бульвар, дом 25, строение 1","PublicPhone":[{"PublicPhone":"(968) 840-43-84"}],"SeatsCount":10,"SocialPrivileges":"нет","Longitude_WGS84":"37.6206526588214130","geoData":{"type":"Point","coordinates":[37.62065265882141,55.77286550659512]}},{"global_id":637440990,"Latitude_WGS84":"55.7600235311403410","ID":"000029888","Name":"Чайная высота","IsNetObject":"нет","TypeObject":"кафетерий","AdmArea":"Центральный административный округ","District":"Басманный район","Address":"город Москва, улица Покровка, дом 27, строение 1","PublicPhone":[{"PublicPhone":"(495) 227-59-96"}],"SeatsCount":15,"SocialPrivileges":"нет","Longitude_WGS84":"37.6482652220200440","geoData":{"type":"Point","coordinates":[37.64826522202004,55.76002353114034]}},{"global_id":637441463,"Latitude_WGS84":"55.7619477540491000","ID":"000025597","Name":"ФРАНЦУЗСКАЯ КОНДИТЕРСКАЯ ЛЯ ЛЯПИН","IsNetObject":"нет","TypeObject":"кафетерий","AdmArea":"Центральный административный округ","District":"Басманный район","Address":"город Москва, улица Покровка, дом 40, строение 1","PublicPhone":[{"PublicPhone":"(495) 916-25-82"}],"SeatsCount":8,"SocialPrivileges":"нет","Longitude_WGS84":"37.6522078739217000","geoData":{"type":"Point","coordinates":[37.6522078739217,55.7619477540491]}},{"global_id":637463517,"Latitude_WGS84":"55.7217101876850760","ID":"00146643","Name":"Фаршмаг","IsNetObject":"нет","TypeObject":"магазин (отдел кулинарии)","AdmArea":"Центральный административный округ","District":"район Якиманка","Address":"город Москва, улица Шаболовка, дом 29, корпус 2","PublicPhone":[{"PublicPhone":"(495) 967-67-94"}],"SeatsCount":24,"SocialPrivileges":"нет","Longitude_WGS84":"37.6106583878585710","geoData":{"type":"Point","coordinates":[37.61065838785857,55.721710187685076]}},{"global_id":637466453,"Latitude_WGS84":"55.9959791662574000","ID":"00141320","Name":"Кафе-кондитерская «Русский лес»","IsNetObject":"нет","TypeObject":"кафетерий","AdmArea":"Зеленоградский административный округ","District":"район Матушкино","Address":"город Зеленоград, корпус 435","PublicPhone":[{"PublicPhone":"нет телефона"}],"SeatsCount":6,"SocialPrivileges":"нет","Longitude_WGS84":"37.2117033229887000","geoData":{"type":"Point","coordinates":[37.2117033229887,55.9959791662574]}},{"global_id":637466697,"Latitude_WGS84":"55.9950090000000030","ID":"000025463","Name":"Кафетерий «Русский лес»","IsNetObject":"нет","TypeObject":"кафетерий","AdmArea":"Зеленоградский административный округ","District":"район Силино","Address":"город Зеленоград, корпус 1204","PublicPhone":[{"PublicPhone":"(499) 731-84-73"}],"SeatsCount":10,"SocialPrivileges":"нет","Longitude_WGS84":"37.1903849999999990","geoData":{"type":"Point","coordinates":[37.190385,55.995009]}},{"global_id":637466751,"Latitude_WGS84":"55.9844590000000000","ID":"000024023","Name":"Пекарня «Дружок-пирожок»","IsNetObject":"нет","TypeObject":"кафетерий","AdmArea":"Зеленоградский административный округ","District":"район Крюково","Address":"город Зеленоград, корпус 1449","PublicPhone":[{"PublicPhone":"нет телефона"}],"SeatsCount":5,"SocialPrivileges":"нет","Longitude_WGS84":"37.1568289990000000","geoData":{"type":"Point","coordinates":[37.156828999,55.984459]}},{"global_id":637467272,"Latitude_WGS84":"55.8524484556765870","ID":"00152918","Name":"ПИЦЦА ПИВО","IsNetObject":"нет","TypeObject":"кафетерий","AdmArea":"Северо-Восточный административный округ","District":"Ярославский район","Address":"Ярославское шоссе, дом 2, корпус 2","PublicPhone":[{"PublicPhone":"нет телефона"}],"SeatsCount":6,"SocialPrivileges":"нет","Longitude_WGS84":"37.6803922701639280","geoData":{"type":"Point","coordinates":[37.68039227016393,55.85244845567659]}},{"global_id":637468259,"Latitude_WGS84":"55.8534412278112880","ID":"00142142","Name":"ПЕКАРНЯ-КАФЕТЕРИЙ «Дерёвня»","IsNetObject":"нет","TypeObject":"кафетерий","AdmArea":"Северо-Западный административный округ","District":"район Митино","Address":"Ангелов переулок, дом 8","PublicPhone":[{"PublicPhone":"(917) 562-40-53"}],"SeatsCount":21,"SocialPrivileges":"нет","Longitude_WGS84":"37.3462287403093360","geoData":{"type":"Point","coordinates":[37.346228740309336,55.85344122781129]}},{"global_id":637470088,"Latitude_WGS84":"55.6859383320508390","ID":"00141147","Name":"Кафе-кулинария Осетинские пироги","IsNetObject":"нет","TypeObject":"кафетерий","AdmArea":"Юго-Восточный административный округ","District":"район Выхино-Жулебино","Address":"улица Генерала Кузнецова, дом 17","PublicPhone":[{"PublicPhone":"нет телефона"}],"SeatsCount":10,"SocialPrivileges":"нет","Longitude_WGS84":"37.8578291332070760","geoData":{"type":"Point","coordinates":[37.857829133207076,55.68593833205084]}},{"global_id":637470382,"Latitude_WGS84":"55.6848386604501610","ID":"00146626","Name":"Чай, кофе","IsNetObject":"нет","TypeObject":"кафетерий","AdmArea":"Юго-Восточный административный округ","District":"район Выхино-Жулебино","Address":"улица Авиаконструктора Миля, дом 8, корпус 1","PublicPhone":[{"PublicPhone":"(926) 048-36-27"}],"SeatsCount":24,"SocialPrivileges":"нет","Longitude_WGS84":"37.8529763728058770","geoData":{"type":"Point","coordinates":[37.85297637280588,55.68483866045016]}},{"global_id":637470517,"Latitude_WGS84":"55.6577915478911290","ID":"00149077","Name":"Пекарня Жаворонок","IsNetObject":"нет","TypeObject":"кафетерий","AdmArea":"Юго-Восточный административный округ","District":"район Марьино","Address":"улица Перерва, дом 56/2","PublicPhone":[{"PublicPhone":"(495) 345-00-00"}],"SeatsCount":53,"SocialPrivileges":"нет","Longitude_WGS84":"37.7475814034959780","geoData":{"type":"Point","coordinates":[37.74758140349598,55.65779154789113]}},{"global_id":637477170,"Latitude_WGS84":"55.8368191346837720","ID":"00137483","Name":"КАФЕТЕРИЙ","IsNetObject":"нет","TypeObject":"кафетерий","AdmArea":"Северо-Западный административный округ","District":"район Митино","Address":"улица Генерала Белобородова, дом 11","PublicPhone":[{"PublicPhone":"(495) 759-66-44"}],"SeatsCount":0,"SocialPrivileges":"нет","Longitude_WGS84":"37.3546420709795090","geoData":{"type":"Point","coordinates":[37.35464207097951,55.83681913468377]}},{"global_id":637478435,"Latitude_WGS84":"55.9797170000000000","ID":"00137895","Name":"Пончиковая","IsNetObject":"нет","TypeObject":"кафетерий","AdmArea":"Зеленоградский административный округ","District":"район Крюково","Address":"город Зеленоград, корпус 1805","PublicPhone":[{"PublicPhone":"нет телефона"}],"SeatsCount":6,"SocialPrivileges":"нет","Longitude_WGS84":"37.1626920000000000","geoData":{"type":"Point","coordinates":[37.162692,55.979717]}},{"global_id":637480778,"Latitude_WGS84":"55.8274539133850000","ID":"000070101","Name":"ПЕКАРНЯ У ДОМА","IsNetObject":"нет","TypeObject":"кафетерий","AdmArea":"Северо-Восточный административный округ","District":"район Марфино","Address":"Большая Марфинская улица, дом 4, корпус 2","PublicPhone":[{"PublicPhone":"(926) 662-92-03"}],"SeatsCount":10,"SocialPrivileges":"нет","Longitude_WGS84":"37.5936337934565000","geoData":{"type":"Point","coordinates":[37.5936337934565,55.827453913385]}},{"global_id":637481851,"Latitude_WGS84":"55.9642062647106610","ID":"00140353","Name":"БЕЙКЕРИ","IsNetObject":"нет","TypeObject":"кафетерий","AdmArea":"Зеленоградский административный округ","District":"район Крюково","Address":"Первомайская улица, дом 42","PublicPhone":[{"PublicPhone":"нет телефона"}],"SeatsCount":0,"SocialPrivileges":"нет","Longitude_WGS84":"37.2076161714264800","geoData":{"type":"Point","coordinates":[37.20761617142648,55.96420626471066]}},{"global_id":637482410,"Latitude_WGS84":"55.6997970000000000","ID":"00156228","Name":"Кондитерская","IsNetObject":"нет","TypeObject":"кафетерий","AdmArea":"Юго-Восточный административный округ","District":"район Некрасовка","Address":"проспект Защитников Москвы, дом 8","PublicPhone":[{"PublicPhone":"(903) 724-76-13"}],"SeatsCount":4,"SocialPrivileges":"нет","Longitude_WGS84":"37.9207340000000000","geoData":{"type":"Point","coordinates":[37.920734,55.699797]}},{"global_id":637485101,"Latitude_WGS84":"55.8754327252430800","ID":"00156683","Name":"Кафетерий","IsNetObject":"нет","TypeObject":"кафетерий","AdmArea":"Северный административный округ","District":"район Ховрино","Address":"город Москва, улица Дыбенко, дом 32, корпус 1","PublicPhone":[{"PublicPhone":"(985) 366-90-87"}],"SeatsCount":2,"SocialPrivileges":"нет","Longitude_WGS84":"37.4854891177450900","geoData":{"type":"Point","coordinates":[37.48548911774509,55.87543272524308]}},{"global_id":637486391,"Latitude_WGS84":"55.6034563291475980","ID":"00150997","Name":"Кафетерий","IsNetObject":"нет","TypeObject":"кафетерий","AdmArea":"Южный административный округ","District":"район Бирюлёво Восточное","Address":"6-я Радиальная улица, дом 5, корпус 4","PublicPhone":[{"PublicPhone":"нет телефона"}],"SeatsCount":6,"SocialPrivileges":"нет","Longitude_WGS84":"37.6624794240221230","geoData":{"type":"Point","coordinates":[37.66247942402212,55.6034563291476]}},{"global_id":637490963,"Latitude_WGS84":"55.9207761000000000","ID":"00140504","Name":"ЛАКИ ЭРА","IsNetObject":"нет","TypeObject":"кафетерий","AdmArea":"Северо-Восточный административный округ","District":"район Северный","Address":"Дмитровское шоссе, домовладение 122Г, корпус 1","PublicPhone":[{"PublicPhone":"нет телефона"}],"SeatsCount":10,"SocialPrivileges":"нет","Longitude_WGS84":"37.5471436000000000","geoData":{"type":"Point","coordinates":[37.5471436,55.9207761]}},{"global_id":637491253,"Latitude_WGS84":"55.8081368582663370","ID":"00153552","Name":"Фаршмаг","IsNetObject":"нет","TypeObject":"кафетерий","AdmArea":"Северный административный округ","District":"район Сокол","Address":"город Москва, Ленинградский проспект, дом 80, корпус 17","PublicPhone":[{"PublicPhone":"(495) 771-70-79"}],"SeatsCount":0,"SocialPrivileges":"нет","Longitude_WGS84":"37.5106547665385650","geoData":{"type":"Point","coordinates":[37.510654766538565,55.80813685826634]}},{"global_id":637495496,"Latitude_WGS84":"55.7406271923576430","ID":"00157389","Name":"Кофе икс","IsNetObject":"нет","TypeObject":"кафетерий","AdmArea":"Центральный административный округ","District":"район Замоскворечье","Address":"город Москва, Пятницкая улица, дом 31, строение 5","PublicPhone":[{"PublicPhone":"(925) 200-00-50"}],"SeatsCount":20,"SocialPrivileges":"нет","Longitude_WGS84":"37.6292016313165690","geoData":{"type":"Point","coordinates":[37.62920163131657,55.74062719235764]}},{"global_id":637496438,"Latitude_WGS84":"55.7403777418457550","ID":"00142602","Name":"Кофеварня","IsNetObject":"нет","TypeObject":"кафетерий","AdmArea":"Центральный административный округ","District":"район Замоскворечье","Address":"город Москва, Озерковская набережная, дом 22/24, строение 2","PublicPhone":[{"PublicPhone":"(916) 119-18-84"}],"SeatsCount":5,"SocialPrivileges":"нет","Longitude_WGS84":"37.6366494398193230","geoData":{"type":"Point","coordinates":[37.63664943981932,55.740377741845755]}},{"global_id":637505861,"Latitude_WGS84":"55.7654190799365490","ID":"000028605","Name":"КОМБИНАТ ПИТАНИЯ МГТУ ИМ.Н.Э.БАУМАНА","IsNetObject":"нет","TypeObject":"кафетерий","AdmArea":"Центральный административный округ","District":"Басманный район","Address":"город Москва, 2-я Бауманская улица, дом 5, строение 1","PublicPhone":[{"PublicPhone":"(499) 261-51-67"}],"SeatsCount":35,"SocialPrivileges":"нет","Longitude_WGS84":"37.6838906021708980","geoData":{"type":"Point","coordinates":[37.6838906021709,55.76541907993655]}},{"global_id":637507572,"Latitude_WGS84":"56.0018609659546340","ID":"000020202","Name":"Кафетерий «Русский лес»","IsNetObject":"нет","TypeObject":"кафетерий","AdmArea":"Зеленоградский административный округ","District":"район Матушкино","Address":"площадь Юности, дом 2, строение 1","PublicPhone":[{"PublicPhone":"(499) 735-85-66"}],"SeatsCount":6,"SocialPrivileges":"нет","Longitude_WGS84":"37.2107415713254000","geoData":{"type":"Point","coordinates":[37.2107415713254,56.001860965954634]}},{"global_id":637509839,"Latitude_WGS84":"55.6074914894447000","ID":"000025748","Name":"ООО «ПИЦЦА-фабрика»","IsNetObject":"да","OperatingCompany":"Пицца Фабрика","TypeObject":"кафетерий","AdmArea":"Южный административный округ","District":"район Чертаново Центральное","Address":"Чертановская улица, дом 48А","PublicPhone":[{"PublicPhone":"(926) 210-73-08"}],"SeatsCount":20,"SocialPrivileges":"нет","Longitude_WGS84":"37.5899052072606000","geoData":{"type":"Point","coordinates":[37.5899052072606,55.6074914894447]}},{"global_id":637510838,"Latitude_WGS84":"55.7046904550755140","ID":"00137785","Name":"COFFEE FOX","IsNetObject":"нет","TypeObject":"кафетерий","AdmArea":"Юго-Западный административный округ","District":"Академический район","Address":"улица Вавилова, дом 7","PublicPhone":[{"PublicPhone":"(925) 838-74-14"}],"SeatsCount":12,"SocialPrivileges":"нет","Longitude_WGS84":"37.5850931097274240","geoData":{"type":"Point","coordinates":[37.585093109727424,55.704690455075514]}},{"global_id":637514457,"Latitude_WGS84":"55.8493978480402000","ID":"000020358","Name":"КАФЕ ГОСТИНИЦА ВОСХОД","IsNetObject":"нет","TypeObject":"кафетерий","AdmArea":"Северо-Восточный административный округ","District":"район Отрадное","Address":"Алтуфьевское шоссе, дом 2","PublicPhone":[{"PublicPhone":"(916) 679-29-08"}],"SeatsCount":40,"SocialPrivileges":"нет","Longitude_WGS84":"37.5865454667816000","geoData":{"type":"Point","coordinates":[37.5865454667816,55.8493978480402]}},{"global_id":637515533,"Latitude_WGS84":"55.8128702273301440","ID":"00115271","Name":"Фирма «Меттел»","IsNetObject":"нет","TypeObject":"кафетерий","AdmArea":"Восточный административный округ","District":"район Богородское","Address":"Бойцовая улица, дом 16","PublicPhone":[{"PublicPhone":"(499) 169-11-15"}],"SeatsCount":16,"SocialPrivileges":"нет","Longitude_WGS84":"37.7204792382647160","geoData":{"type":"Point","coordinates":[37.720479238264716,55.812870227330144]}},{"global_id":637515745,"Latitude_WGS84":"55.7966249354743980","ID":"00152451","Name":"Чебуречная СССР","IsNetObject":"да","OperatingCompany":"Чебуречная СССР","TypeObject":"кафетерий","AdmArea":"Восточный административный округ","District":"район Сокольники","Address":"Колодезный переулок, дом 3","PublicPhone":[{"PublicPhone":"нет телефона"}],"SeatsCount":6,"SocialPrivileges":"нет","Longitude_WGS84":"37.6995220235668780","geoData":{"type":"Point","coordinates":[37.69952202356688,55.7966249354744]}},{"global_id":637520158,"Latitude_WGS84":"55.7701017076819600","ID":"000025686","Name":"КАФЕТЕРИЙ","IsNetObject":"нет","TypeObject":"кафетерий","AdmArea":"Центральный административный округ","District":"Тверской район","Address":"город Москва, Цветной бульвар, дом 11, строение 2","PublicPhone":[{"PublicPhone":"(495) 924-77-75"}],"SeatsCount":30,"SocialPrivileges":"нет","Longitude_WGS84":"37.6204089015075670","geoData":{"type":"Point","coordinates":[37.62040890150757,55.77010170768196]}},{"global_id":637521127,"Latitude_WGS84":"55.8911216866308250","ID":"00156411","Name":"Кофетерий","IsNetObject":"нет","TypeObject":"кафетерий","AdmArea":"Северо-Восточный административный округ","District":"район Бибирево","Address":"улица Конёнкова, дом 13, строение 2","PublicPhone":[{"PublicPhone":"нет телефона"}],"SeatsCount":3,"SocialPrivileges":"нет","Longitude_WGS84":"37.6088979183696640","geoData":{"type":"Point","coordinates":[37.608897918369664,55.891121686630825]}},{"global_id":637523821,"Latitude_WGS84":"55.8401945378322470","ID":"00156172","Name":"Пекарня","IsNetObject":"нет","TypeObject":"кафетерий","AdmArea":"Северный административный округ","District":"Головинский район","Address":"город Москва, Кронштадтский бульвар, дом 3, строение 3","PublicPhone":[{"PublicPhone":"нет телефона"}],"SeatsCount":10,"SocialPrivileges":"нет","Longitude_WGS84":"37.4860990637673840","geoData":{"type":"Point","coordinates":[37.486099063767384,55.84019453783225]}},{"global_id":637529981,"Latitude_WGS84":"55.7627451561690390","ID":"00145542","Name":"Каббала центр","IsNetObject":"нет","TypeObject":"кафетерий","AdmArea":"Центральный административный округ","District":"Красносельский район","Address":"город Москва, Мясницкая улица, дом 13, строение 11","PublicPhone":[{"PublicPhone":"(495) 504-10-12"}],"SeatsCount":200,"SocialPrivileges":"нет","Longitude_WGS84":"37.6331589014135370","geoData":{"type":"Point","coordinates":[37.63315890141354,55.76274515616904]}},{"global_id":637532378,"Latitude_WGS84":"55.7618930557721480","ID":"00143459","Name":"GOOD ENOUGH","IsNetObject":"нет","TypeObject":"бар","AdmArea":"Центральный административный округ","District":"Тверской район","Address":"город Москва, улица Большая Дмитровка, дом 11, строение 3","PublicPhone":[{"PublicPhone":"(925) 771-27-51"}],"SeatsCount":39,"SocialPrivileges":"нет","Longitude_WGS84":"37.6130547267666340","geoData":{"type":"Point","coordinates":[37.613054726766634,55.76189305577215]}},{"global_id":637532656,"Latitude_WGS84":"55.7552741879577810","ID":"000021298","Name":"ФГУП МАГАЗИН «КУЛИНАРИЯ»","IsNetObject":"нет","TypeObject":"кафетерий","AdmArea":"Центральный административный округ","District":"Тверской район","Address":"город Москва, Красная площадь, дом 1","PublicPhone":[{"PublicPhone":"(495) 606-20-29"}],"SeatsCount":15,"SocialPrivileges":"нет","Longitude_WGS84":"37.6177405051167850","geoData":{"type":"Point","coordinates":[37.617740505116785,55.75527418795778]}},{"global_id":637532936,"Latitude_WGS84":"55.7275122197660980","ID":"00149674","Name":"Медерибио","IsNetObject":"нет","TypeObject":"кафетерий","AdmArea":"Центральный административный округ","District":"район Хамовники","Address":"город Москва, Усачёва улица, дом 26","PublicPhone":[{"PublicPhone":"(499) 246-20-81"}],"SeatsCount":25,"SocialPrivileges":"нет","Longitude_WGS84":"37.5677301270228480","geoData":{"type":"Point","coordinates":[37.56773012702285,55.7275122197661]}},{"global_id":637533267,"Latitude_WGS84":"55.7827540000000000","ID":"00128945","Name":"YELLOW VIBE COFFE","IsNetObject":"нет","TypeObject":"кафетерий","AdmArea":"Восточный административный округ","District":"район Соколиная Гора","Address":"Щербаковская улица, дом 7А","PublicPhone":[{"PublicPhone":"(903) 777-42-11"}],"SeatsCount":3,"SocialPrivileges":"нет","Longitude_WGS84":"37.7265830000000000","geoData":{"type":"Point","coordinates":[37.726583,55.782754]}},{"global_id":637533449,"Latitude_WGS84":"55.6378942600000000","ID":"00131706","Name":"Хачапури","IsNetObject":"нет","TypeObject":"кафетерий","AdmArea":"Южный административный округ","District":"район Москворечье-Сабурово","Address":"Кантемировская улица, дом 6, корпус 1","PublicPhone":[{"PublicPhone":"(965) 217-40-15"}],"SeatsCount":4,"SocialPrivileges":"нет","Longitude_WGS84":"37.6776987170000000","geoData":{"type":"Point","coordinates":[37.677698717,55.63789426]}},{"global_id":637533580,"Latitude_WGS84":"55.7142489476568630","ID":"00143708","Name":"Кафе «Кафетериус»","IsNetObject":"нет","TypeObject":"кафетерий","AdmArea":"Южный административный округ","District":"Даниловский район","Address":"Восточная улица, дом 4, корпус 1","PublicPhone":[{"PublicPhone":"(980) 328-18-32"}],"SeatsCount":15,"SocialPrivileges":"нет","Longitude_WGS84":"37.6587027333229680","geoData":{"type":"Point","coordinates":[37.65870273332297,55.71424894765686]}},{"global_id":637533816,"Latitude_WGS84":"55.7674419892726480","ID":"00147962","Name":"Антикафе «Нулевой километр»","IsNetObject":"нет","TypeObject":"кафетерий","AdmArea":"Центральный административный округ","District":"Мещанский район","Address":"город Москва, улица Сретенка, дом 7","PublicPhone":[{"PublicPhone":"(495) 621-38-83"}],"SeatsCount":35,"SocialPrivileges":"нет","Longitude_WGS84":"37.6314013061605340","geoData":{"type":"Point","coordinates":[37.631401306160534,55.76744198927265]}},{"global_id":637534187,"Latitude_WGS84":"55.7527208715505440","ID":"00141498","Name":"Пянсе","IsNetObject":"нет","TypeObject":"кафетерий","AdmArea":"Центральный административный округ","District":"район Арбат","Address":"город Москва, улица Воздвиженка, дом 4/7, строение 1","PublicPhone":[{"PublicPhone":"нет телефона"}],"SeatsCount":0,"SocialPrivileges":"нет","Longitude_WGS84":"37.6100856963554480","geoData":{"type":"Point","coordinates":[37.61008569635545,55.752720871550544]}},{"global_id":637534205,"Latitude_WGS84":"55.7537403409148600","ID":"00144404","Name":"Кофейня","IsNetObject":"нет","TypeObject":"кафетерий","AdmArea":"Центральный административный округ","District":"район Арбат","Address":"город Москва, Большой Кисловский переулок, дом 1, строение 2","PublicPhone":[{"PublicPhone":"нет телефона"}],"SeatsCount":10,"SocialPrivileges":"нет","Longitude_WGS84":"37.6055678397103890","geoData":{"type":"Point","coordinates":[37.60556783971039,55.75374034091486]}},{"global_id":637534818,"Latitude_WGS84":"55.7485070758994750","ID":"00158162","Name":"Кафетерий","IsNetObject":"нет","TypeObject":"кафетерий","AdmArea":"Центральный административный округ","District":"Таганский район","Address":"город Москва, Николоямская улица, дом 1","PublicPhone":[{"PublicPhone":"(916) 411-80-02"}],"SeatsCount":20,"SocialPrivileges":"нет","Longitude_WGS84":"37.6475803800430460","geoData":{"type":"Point","coordinates":[37.647580380043046,55.748507075899475]}},{"global_id":637534866,"Latitude_WGS84":"55.8001713003851660","ID":"00149523","Name":"Доминос пицца","IsNetObject":"нет","TypeObject":"кафетерий","AdmArea":"Северо-Западный административный округ","District":"район Щукино","Address":"улица Маршала Бирюзова, дом 34, корпус 2","PublicPhone":[{"PublicPhone":"(963) 686-13-22"}],"SeatsCount":4,"SocialPrivileges":"нет","Longitude_WGS84":"37.4815567208434080","geoData":{"type":"Point","coordinates":[37.48155672084341,55.800171300385166]}},{"global_id":637534971,"Latitude_WGS84":"55.8168867509056740","ID":"00149537","Name":"Bizone Антикафе","IsNetObject":"нет","TypeObject":"кафетерий","AdmArea":"Северный административный округ","District":"Войковский район","Address":"город Москва, Ленинградское шоссе, дом 8, строение 2","PublicPhone":[{"PublicPhone":"(977) 713-78-48"}],"SeatsCount":22,"SocialPrivileges":"нет","Longitude_WGS84":"37.5010949473868040","geoData":{"type":"Point","coordinates":[37.501094947386804,55.816886750905674]}},{"global_id":637535242,"Latitude_WGS84":"55.8005430000000000","ID":"00154827","Name":"Кафетерий","IsNetObject":"нет","TypeObject":"кафетерий","AdmArea":"Северный административный округ","District":"Савёловский район","Address":"город Москва, Старый Петровско-Разумовский проезд, дом 1/23, строение 1","PublicPhone":[{"PublicPhone":"нет телефона"}],"SeatsCount":16,"SocialPrivileges":"нет","Longitude_WGS84":"37.5653030000000000","geoData":{"type":"Point","coordinates":[37.565303,55.800543]}},{"global_id":637535258,"Latitude_WGS84":"55.6391395809000000","ID":"00131737","Name":"Йогорино","IsNetObject":"нет","TypeObject":"кафетерий","AdmArea":"Южный административный округ","District":"район Москворечье-Сабурово","Address":"Кантемировская улица, дом 58","PublicPhone":[{"PublicPhone":"(495) 795-66-63"}],"SeatsCount":12,"SocialPrivileges":"нет","Longitude_WGS84":"37.6459119966000000","geoData":{"type":"Point","coordinates":[37.6459119966,55.6391395809]}},{"global_id":637535308,"Latitude_WGS84":"55.7759265125551170","ID":"00157662","Name":"МАГНОЛИЯ","IsNetObject":"да","OperatingCompany":"Магнолия","TypeObject":"кафетерий","AdmArea":"Центральный административный округ","District":"Тверской район","Address":"город Москва, 1-я Тверская-Ямская улица, дом 29, строение 1","PublicPhone":[{"PublicPhone":"(499) 720-58-39"}],"SeatsCount":10,"SocialPrivileges":"нет","Longitude_WGS84":"37.5850865321491130","geoData":{"type":"Point","coordinates":[37.58508653214911,55.77592651255512]}},{"global_id":637535311,"Latitude_WGS84":"55.7261587862996850","ID":"00142546","Name":"Кофейня","IsNetObject":"нет","TypeObject":"кафетерий","AdmArea":"Южный административный округ","District":"Даниловский район","Address":"Дербеневская улица, дом 1, строение 2","PublicPhone":[{"PublicPhone":"нет телефона"}],"SeatsCount":0,"SocialPrivileges":"нет","Longitude_WGS84":"37.6516905926541700","geoData":{"type":"Point","coordinates":[37.65169059265417,55.726158786299685]}},{"global_id":637535749,"Latitude_WGS84":"55.9020971775109960","ID":"00141260","Name":"Выпечка Минипекарня","IsNetObject":"нет","TypeObject":"кафетерий","AdmArea":"Северо-Восточный административный округ","District":"район Лианозово","Address":"Псковская улица, дом 2А","PublicPhone":[{"PublicPhone":"нет телефона"}],"SeatsCount":7,"SocialPrivileges":"нет","Longitude_WGS84":"37.5546602578254390","geoData":{"type":"Point","coordinates":[37.55466025782544,55.902097177510996]}},{"global_id":637535839,"Latitude_WGS84":"55.9073407234470990","ID":"00145282","Name":"Кафетерий при АЗС","IsNetObject":"нет","TypeObject":"кафетерий","AdmArea":"Северо-Восточный административный округ","District":"район Бибирево","Address":"Алтуфьевское шоссе, дом 106","PublicPhone":[{"PublicPhone":"(915) 059-00-60"}],"SeatsCount":6,"SocialPrivileges":"нет","Longitude_WGS84":"37.5887510171006340","geoData":{"type":"Point","coordinates":[37.588751017100634,55.9073407234471]}},{"global_id":637535842,"Latitude_WGS84":"55.8336620629161830","ID":"00091494","Name":"КАФЕ","IsNetObject":"нет","TypeObject":"кафетерий","AdmArea":"Северо-Восточный административный округ","District":"район Ростокино","Address":"Сельскохозяйственная улица, дом 9, строение 1","PublicPhone":[{"PublicPhone":"(915) 165-02-54"}],"SeatsCount":10,"SocialPrivileges":"нет","Longitude_WGS84":"37.6461425988077070","geoData":{"type":"Point","coordinates":[37.64614259880771,55.83366206291618]}},{"global_id":637535901,"Latitude_WGS84":"55.8827436758979700","ID":"00145275","Name":"Кафетерий при АЗС","IsNetObject":"нет","TypeObject":"кафетерий","AdmArea":"Северо-Восточный административный округ","District":"район Бибирево","Address":"улица Плещеева, дом 2, строение 1","PublicPhone":[{"PublicPhone":"(926) 522-84-51"}],"SeatsCount":12,"SocialPrivileges":"нет","Longitude_WGS84":"37.6045412400300950","geoData":{"type":"Point","coordinates":[37.604541240030095,55.88274367589797]}},{"global_id":637535924,"Latitude_WGS84":"55.8033986251110080","ID":"000025609","Name":"КОФЕ ХАУС","IsNetObject":"да","OperatingCompany":"Кофе Хаус","TypeObject":"кафетерий","AdmArea":"Северо-Восточный административный округ","District":"район Марьина Роща","Address":"Шереметьевская улица, дом 20","PublicPhone":[{"PublicPhone":"(495) 221-83-81"}],"SeatsCount":40,"SocialPrivileges":"нет","Longitude_WGS84":"37.6186957463634780","geoData":{"type":"Point","coordinates":[37.61869574636348,55.80339862511101]}},{"global_id":637535956,"Latitude_WGS84":"55.8984465662750760","ID":"00145283","Name":"Кафетерий при АЗК 317","IsNetObject":"нет","TypeObject":"кафетерий","AdmArea":"Северо-Восточный административный округ","District":"район Бибирево","Address":"МКАД, 87-й километр, владение 14","PublicPhone":[{"PublicPhone":"(495) 780-52-01"}],"SeatsCount":20,"SocialPrivileges":"нет","Longitude_WGS84":"37.6319887004857630","geoData":{"type":"Point","coordinates":[37.63198870048576,55.89844656627508]}},{"global_id":637536005,"Latitude_WGS84":"55.8631782546610580","ID":"00153998","Name":"Рахмилевич сахар","IsNetObject":"нет","TypeObject":"кафетерий","AdmArea":"Северо-Восточный административный округ","District":"район Отрадное","Address":"улица Декабристов, дом 12","PublicPhone":[{"PublicPhone":"(926) 539-35-41"}],"SeatsCount":30,"SocialPrivileges":"нет","Longitude_WGS84":"37.6019194946989260","geoData":{"type":"Point","coordinates":[37.601919494698926,55.86317825466106]}},{"global_id":637536039,"Latitude_WGS84":"55.8573261180609000","ID":"000020362","Name":"РУССКИЙ ТЕННИСНЫЙ КЛУБ","IsNetObject":"нет","TypeObject":"кафетерий","AdmArea":"Северо-Восточный административный округ","District":"район Отрадное","Address":"Отрадная улица, дом 8","PublicPhone":[{"PublicPhone":"(495) 783-66-90"}],"SeatsCount":38,"SocialPrivileges":"да","Longitude_WGS84":"37.6083244057883000","geoData":{"type":"Point","coordinates":[37.6083244057883,55.8573261180609]}},{"global_id":637536094,"Latitude_WGS84":"55.9159453566259400","ID":"00100671","Name":"Глинка Виктор Викторович","IsNetObject":"нет","TypeObject":"кафетерий","AdmArea":"Северо-Восточный административный округ","District":"район Северный","Address":"Дмитровское шоссе, дом 165Б","PublicPhone":[{"PublicPhone":"(903) 100-58-36"}],"SeatsCount":0,"SocialPrivileges":"нет","Longitude_WGS84":"37.5402281113588430","geoData":{"type":"Point","coordinates":[37.54022811135884,55.91594535662594]}},{"global_id":637536100,"Latitude_WGS84":"55.8069670995287050","ID":"00152980","Name":"Гранд Круассан","IsNetObject":"нет","TypeObject":"кафетерий","AdmArea":"Северо-Восточный административный округ","District":"Бутырский район","Address":"Новодмитровская улица, дом 1, строение 2","PublicPhone":[{"PublicPhone":"(495) 107-91-60"}],"SeatsCount":12,"SocialPrivileges":"нет","Longitude_WGS84":"37.5831648290809640","geoData":{"type":"Point","coordinates":[37.583164829080964,55.806967099528705]}},{"global_id":637536330,"Latitude_WGS84":"55.8528092275558380","ID":"000020364","Name":"Кино Сфера","IsNetObject":"нет","TypeObject":"кафетерий","AdmArea":"Северо-Восточный административный округ","District":"район Отрадное","Address":"Алтуфьевское шоссе, дом 8","PublicPhone":[{"PublicPhone":"(495) 510-69-94"}],"SeatsCount":30,"SocialPrivileges":"нет","Longitude_WGS84":"37.5857461692882210","geoData":{"type":"Point","coordinates":[37.58574616928822,55.85280922755584]}},{"global_id":637536335,"Latitude_WGS84":"55.8944949893761420","ID":"00156586","Name":"Пронин А.В.","IsNetObject":"нет","TypeObject":"кафетерий","AdmArea":"Северо-Восточный административный округ","District":"район Бибирево","Address":"улица Лескова, дом 26А","PublicPhone":[{"PublicPhone":"нет телефона"}],"SeatsCount":2,"SocialPrivileges":"нет","Longitude_WGS84":"37.6130552795043090","geoData":{"type":"Point","coordinates":[37.61305527950431,55.89449498937614]}},{"global_id":637538180,"Latitude_WGS84":"55.8649500000000000","ID":"00149530","Name":"Бистро пекарня","IsNetObject":"нет","TypeObject":"кафетерий","AdmArea":"Северо-Восточный административный округ","District":"район Отрадное","Address":"улица Декабристов, дом 15Б","PublicPhone":[{"PublicPhone":"(926) 466-51-52"}],"SeatsCount":10,"SocialPrivileges":"нет","Longitude_WGS84":"37.6040260000000000","geoData":{"type":"Point","coordinates":[37.604026,55.86495]}},{"global_id":637538183,"Latitude_WGS84":"55.8790103198323820","ID":"00154259","Name":"Пиццерия «УНА»","IsNetObject":"нет","TypeObject":"кафетерий","AdmArea":"Северо-Восточный административный округ","District":"Алтуфьевский район","Address":"Инженерная улица, дом 5","PublicPhone":[{"PublicPhone":"(905) 722-12-22"}],"SeatsCount":2,"SocialPrivileges":"нет","Longitude_WGS84":"37.5795257147886370","geoData":{"type":"Point","coordinates":[37.57952571478864,55.87901031983238]}},{"global_id":637538315,"Latitude_WGS84":"55.8152577777092130","ID":"00137043","Name":"Смирнов Д.В.","IsNetObject":"нет","TypeObject":"кафетерий","AdmArea":"Восточный административный округ","District":"район Богородское","Address":"Открытое шоссе, дом 9, строение 6","PublicPhone":[{"PublicPhone":"нет телефона"}],"SeatsCount":40,"SocialPrivileges":"нет","Longitude_WGS84":"37.7347258859682100","geoData":{"type":"Point","coordinates":[37.73472588596821,55.81525777770921]}},{"global_id":637538357,"Latitude_WGS84":"55.8106120000000000","ID":"00154497","Name":"Кафетерий","IsNetObject":"нет","TypeObject":"кафетерий","AdmArea":"Восточный административный округ","District":"район Северное Измайлово","Address":"Щёлковское шоссе, дом 100, корпус 100","PublicPhone":[{"PublicPhone":"(499) 748-84-23"}],"SeatsCount":8,"SocialPrivileges":"нет","Longitude_WGS84":"37.8308050000000000","geoData":{"type":"Point","coordinates":[37.830805,55.810612]}},{"global_id":637538373,"Latitude_WGS84":"55.7449063216016680","ID":"00140582","Name":"Кафетерий","IsNetObject":"нет","TypeObject":"кафетерий","AdmArea":"Восточный административный округ","District":"район Новокосино","Address":"Суздальская улица, дом 15А","PublicPhone":[{"PublicPhone":"(926) 526-79-74"}],"SeatsCount":16,"SocialPrivileges":"нет","Longitude_WGS84":"37.8640954649335270","geoData":{"type":"Point","coordinates":[37.86409546493353,55.74490632160167]}},{"global_id":637538627,"Latitude_WGS84":"55.7830754374977000","ID":"000029658","Name":"Кондитерская","IsNetObject":"нет","TypeObject":"кафетерий","AdmArea":"Восточный административный округ","District":"район Соколиная Гора","Address":"Щербаковская улица, дом 53, корпус 15","PublicPhone":[{"PublicPhone":"(495) 779-08-98"}],"SeatsCount":10,"SocialPrivileges":"нет","Longitude_WGS84":"37.7358688028384000","geoData":{"type":"Point","coordinates":[37.7358688028384,55.7830754374977]}},{"global_id":637538663,"Latitude_WGS84":"55.7883749387866390","ID":"00127119","Name":"Фастфуд «Налетайка»","IsNetObject":"нет","TypeObject":"кафетерий","AdmArea":"Восточный административный округ","District":"район Измайлово","Address":"Измайловское шоссе, дом 69Д","PublicPhone":[{"PublicPhone":"(909) 901-99-99"}],"SeatsCount":0,"SocialPrivileges":"нет","Longitude_WGS84":"37.7480031976143450","geoData":{"type":"Point","coordinates":[37.748003197614345,55.78837493878664]}},{"global_id":637538701,"Latitude_WGS84":"55.7909635198574000","ID":"000081396","Name":"ЧЕБУРЕЧНАЯ","IsNetObject":"нет","TypeObject":"кафетерий","AdmArea":"Восточный административный округ","District":"район Измайлово","Address":"Измайловское шоссе, дом 71, строение 14","PublicPhone":[{"PublicPhone":"(495) 965-27-30"}],"SeatsCount":5,"SocialPrivileges":"нет","Longitude_WGS84":"37.7485027066494000","geoData":{"type":"Point","coordinates":[37.7485027066494,55.7909635198574]}},{"global_id":637538723,"Latitude_WGS84":"55.7527271174862520","ID":"000083419","Name":"КАФЕ «ОБЩЕПИТ»","IsNetObject":"нет","TypeObject":"кафетерий","AdmArea":"Восточный административный округ","District":"район Новогиреево","Address":"Свободный проспект, дом 33А","PublicPhone":[{"PublicPhone":"(909) 677-69-19"}],"SeatsCount":36,"SocialPrivileges":"нет","Longitude_WGS84":"37.8183610654788890","geoData":{"type":"Point","coordinates":[37.81836106547889,55.75272711748625]}},{"global_id":637538728,"Latitude_WGS84":"55.7756920000000000","ID":"00145303","Name":"BP","IsNetObject":"нет","TypeObject":"кафетерий","AdmArea":"Восточный административный округ","District":"район Ивановское","Address":"шоссе Энтузиастов, дом 63Б","PublicPhone":[{"PublicPhone":"нет телефона"}],"SeatsCount":16,"SocialPrivileges":"нет","Longitude_WGS84":"37.8348270000000000","geoData":{"type":"Point","coordinates":[37.834827,55.775692]}},{"global_id":637538759,"Latitude_WGS84":"55.7895553100875930","ID":"00091392","Name":"БИСТРО","IsNetObject":"нет","TypeObject":"кафетерий","AdmArea":"Восточный административный округ","District":"район Измайлово","Address":"Измайловское шоссе, дом 71А","PublicPhone":[{"PublicPhone":"(499) 981-05-68"}],"SeatsCount":1,"SocialPrivileges":"нет","Longitude_WGS84":"37.7524795989339100","geoData":{"type":"Point","coordinates":[37.75247959893391,55.78955531008759]}},{"global_id":637538765,"Latitude_WGS84":"55.7768970314705000","ID":"000025315","Name":"КАФЕ «ЧАЙКА»","IsNetObject":"нет","TypeObject":"кафетерий","AdmArea":"Восточный административный округ","District":"район Соколиная Гора","Address":"проспект Будённого, дом 14","PublicPhone":[{"PublicPhone":"(499) 369-85-87"}],"SeatsCount":30,"SocialPrivileges":"нет","Longitude_WGS84":"37.7207490430901000","geoData":{"type":"Point","coordinates":[37.7207490430901,55.7768970314705]}},{"global_id":637538799,"Latitude_WGS84":"55.7819190000000000","ID":"00137574","Name":"Соки","IsNetObject":"нет","TypeObject":"кафетерий","AdmArea":"Восточный административный округ","District":"район Соколиная Гора","Address":"Большая Семёновская улица, дом 16","PublicPhone":[{"PublicPhone":"нет телефона"}],"SeatsCount":0,"SocialPrivileges":"нет","Longitude_WGS84":"37.7040170000000000","geoData":{"type":"Point","coordinates":[37.704017,55.781919]}},{"global_id":637538803,"Latitude_WGS84":"55.7819190000000000","ID":"00137600","Name":"Кофе","IsNetObject":"нет","TypeObject":"кафетерий","AdmArea":"Восточный административный округ","District":"район Соколиная Гора","Address":"Большая Семёновская улица, дом 16","PublicPhone":[{"PublicPhone":"нет телефона"}],"SeatsCount":0,"SocialPrivileges":"нет","Longitude_WGS84":"37.7040170000000000","geoData":{"type":"Point","coordinates":[37.704017,55.781919]}},{"global_id":637538840,"Latitude_WGS84":"55.7453708976159350","ID":"00139353","Name":"Кафетерий","IsNetObject":"нет","TypeObject":"кафетерий","AdmArea":"Восточный административный округ","District":"район Новогиреево","Address":"Перовская улица, дом 61А","PublicPhone":[{"PublicPhone":"(926) 660-16-91"}],"SeatsCount":2,"SocialPrivileges":"нет","Longitude_WGS84":"37.7972584807730240","geoData":{"type":"Point","coordinates":[37.797258480773024,55.745370897615935]}},{"global_id":637539244,"Latitude_WGS84":"55.7227840464364230","ID":"00136117","Name":"Кафетериус","IsNetObject":"нет","TypeObject":"кафетерий","AdmArea":"Юго-Восточный административный округ","District":"Южнопортовый район","Address":"Волгоградский проспект, дом 32, корпус 11","PublicPhone":[{"PublicPhone":"(926) 403-90-05"}],"SeatsCount":50,"SocialPrivileges":"нет","Longitude_WGS84":"37.6920414929938730","geoData":{"type":"Point","coordinates":[37.69204149299387,55.72278404643642]}},{"global_id":637539439,"Latitude_WGS84":"55.6587335498689000","ID":"000020242","Name":"Фитнес бар «Холдинг»","IsNetObject":"нет","TypeObject":"кафетерий","AdmArea":"Юго-Восточный административный округ","District":"район Марьино","Address":"Люблинская улица, дом 153","PublicPhone":[{"PublicPhone":"(495) 933-71-10"}],"SeatsCount":25,"SocialPrivileges":"нет","Longitude_WGS84":"37.7418387208260000","geoData":{"type":"Point","coordinates":[37.741838720826,55.6587335498689]}},{"global_id":637539571,"Latitude_WGS84":"55.6603862740438000","ID":"000079662","Name":"Кафетерий «Салют»","IsNetObject":"нет","TypeObject":"кафетерий","AdmArea":"Юго-Восточный административный округ","District":"район Марьино","Address":"Белореченская улица, дом 40","PublicPhone":[{"PublicPhone":"(495) 346-49-00"}],"SeatsCount":25,"SocialPrivileges":"нет","Longitude_WGS84":"37.7788993345333000","geoData":{"type":"Point","coordinates":[37.7788993345333,55.6603862740438]}},{"global_id":637539572,"Latitude_WGS84":"55.6633089999999000","ID":"000069332","Name":"Кафе «АндерСон»","IsNetObject":"да","OperatingCompany":"Андерсон","TypeObject":"кафетерий","AdmArea":"Юго-Восточный административный округ","District":"район Марьино","Address":"Братиславская улица, дом 6","PublicPhone":[{"PublicPhone":"(909) 156-46-33"}],"SeatsCount":85,"SocialPrivileges":"нет","Longitude_WGS84":"37.7537710000000000","geoData":{"type":"Point","coordinates":[37.753771,55.6633089999999]}},{"global_id":637539600,"Latitude_WGS84":"55.6497174876047250","ID":"00134570","Name":"Павильон «Кофе и соки с собой»","IsNetObject":"нет","TypeObject":"кафетерий","AdmArea":"Юго-Восточный административный округ","District":"район Марьино","Address":"Поречная улица, дом 10","PublicPhone":[{"PublicPhone":"нет телефона"}],"SeatsCount":0,"SocialPrivileges":"нет","Longitude_WGS84":"37.7701189504750520","geoData":{"type":"Point","coordinates":[37.77011895047505,55.649717487604725]}},{"global_id":637539636,"Latitude_WGS84":"55.7474041431465250","ID":"00092405","Name":"ЯММИ МИКС","IsNetObject":"нет","TypeObject":"кафетерий","AdmArea":"Юго-Восточный административный округ","District":"район Лефортово","Address":"шоссе Энтузиастов, дом 12, корпус 2","PublicPhone":[{"PublicPhone":"(495) 673-53-74"}],"SeatsCount":2,"SocialPrivileges":"нет","Longitude_WGS84":"37.7069724852104640","geoData":{"type":"Point","coordinates":[37.706972485210464,55.747404143146525]}},{"global_id":637539780,"Latitude_WGS84":"55.7054919247015410","ID":"00128772","Name":"Ветрова Е.А.","IsNetObject":"нет","TypeObject":"кафетерий","AdmArea":"Юго-Восточный административный округ","District":"Южнопортовый район","Address":"7-я Кожуховская улица, дом 9","PublicPhone":[{"PublicPhone":"нет телефона"}],"SeatsCount":0,"SocialPrivileges":"нет","Longitude_WGS84":"37.6695979114192310","geoData":{"type":"Point","coordinates":[37.66959791141923,55.70549192470154]}},{"global_id":637539801,"Latitude_WGS84":"55.6854288737375210","ID":"00155957","Name":"МОРОЗКО","IsNetObject":"нет","TypeObject":"кафетерий","AdmArea":"Юго-Западный административный округ","District":"Академический район","Address":"улица Кедрова, дом 7А","PublicPhone":[{"PublicPhone":"(499) 129-55-83"}],"SeatsCount":26,"SocialPrivileges":"нет","Longitude_WGS84":"37.5685232503100150","geoData":{"type":"Point","coordinates":[37.568523250310015,55.68542887373752]}},{"global_id":637539941,"Latitude_WGS84":"55.5971949720602080","ID":"00101015","Name":"ШОКОЛАДНИЦА","IsNetObject":"да","OperatingCompany":"Шоколадница","TypeObject":"кафетерий","AdmArea":"Юго-Западный административный округ","District":"район Ясенево","Address":"Голубинская улица, дом 16","PublicPhone":[{"PublicPhone":"(499) 643-28-21"}],"SeatsCount":114,"SocialPrivileges":"нет","Longitude_WGS84":"37.5271281179582490","geoData":{"type":"Point","coordinates":[37.52712811795825,55.59719497206021]}},{"global_id":637540499,"Latitude_WGS84":"55.5362933403074810","ID":"00155093","Name":"Фортуна","IsNetObject":"нет","TypeObject":"кафетерий","AdmArea":"Юго-Западный административный округ","District":"район Южное Бутово","Address":"Варшавское шоссе, дом 206","PublicPhone":[{"PublicPhone":"нет телефона"}],"SeatsCount":12,"SocialPrivileges":"нет","Longitude_WGS84":"37.5813467090527520","geoData":{"type":"Point","coordinates":[37.58134670905275,55.53629334030748]}},{"global_id":637540672,"Latitude_WGS84":"55.7401612897729630","ID":"00145541","Name":"Аленка","IsNetObject":"нет","TypeObject":"кафетерий","AdmArea":"Центральный административный округ","District":"район Якиманка","Address":"город Москва, Берсеневская набережная, дом 6, строение 1","PublicPhone":[{"PublicPhone":"нет телефона"}],"SeatsCount":10,"SocialPrivileges":"нет","Longitude_WGS84":"37.6088694523795010","geoData":{"type":"Point","coordinates":[37.6088694523795,55.74016128977296]}},{"global_id":637540880,"Latitude_WGS84":"55.6607736068465000","ID":"000020193","Name":"Кафе «ПЕТРОЛ КОМПЛЕКС ЭКВИПМЕНТ КАМПАНИ»","IsNetObject":"нет","TypeObject":"кафетерий","AdmArea":"Западный административный округ","District":"район Тропарёво-Никулино","Address":"проспект Вернадского, дом 86Д","PublicPhone":[{"PublicPhone":"(495) 430-74-01"}],"SeatsCount":40,"SocialPrivileges":"нет","Longitude_WGS84":"37.4803100039094000","geoData":{"type":"Point","coordinates":[37.4803100039094,55.6607736068465]}},{"global_id":637541366,"Latitude_WGS84":"55.7445646191721450","ID":"00139489","Name":"Coffeeshop Company","IsNetObject":"да","OperatingCompany":"Coffeeshop Company","TypeObject":"кафетерий","AdmArea":"Западный административный округ","District":"район Дорогомилово","Address":"площадь Киевского Вокзала, дом 2","PublicPhone":[{"PublicPhone":"(495) 921-34-44"}],"SeatsCount":0,"SocialPrivileges":"нет","Longitude_WGS84":"37.5659796068120640","geoData":{"type":"Point","coordinates":[37.565979606812064,55.744564619172145]}},{"global_id":637541383,"Latitude_WGS84":"55.7445646191721450","ID":"00139495","Name":"Калимера","IsNetObject":"нет","TypeObject":"кафетерий","AdmArea":"Западный административный округ","District":"район Дорогомилово","Address":"площадь Киевского Вокзала, дом 2","PublicPhone":[{"PublicPhone":"(495) 921-34-44"}],"SeatsCount":0,"SocialPrivileges":"нет","Longitude_WGS84":"37.5659796068120640","geoData":{"type":"Point","coordinates":[37.565979606812064,55.744564619172145]}},{"global_id":637541476,"Latitude_WGS84":"55.7437016298430950","ID":"000019999","Name":"Кафе «Наш Хлеб насущный»","IsNetObject":"нет","TypeObject":"кафетерий","AdmArea":"Западный административный округ","District":"район Филёвский Парк","Address":"Багратионовский проезд, дом 5","PublicPhone":[{"PublicPhone":"(916) 209-23-69"}],"SeatsCount":5,"SocialPrivileges":"нет","Longitude_WGS84":"37.5080597737107770","geoData":{"type":"Point","coordinates":[37.50805977371078,55.743701629843095]}},{"global_id":637541762,"Latitude_WGS84":"55.8461961442974000","ID":"000019868","Name":"КАФЕ-МОРОЖЕНОЕ","IsNetObject":"нет","TypeObject":"кафетерий","AdmArea":"Северо-Западный административный округ","District":"район Митино","Address":"Дубравная улица, дом 34/29","PublicPhone":[{"PublicPhone":"(495) 725-11-50"}],"SeatsCount":35,"SocialPrivileges":"нет","Longitude_WGS84":"37.3585408638590000","geoData":{"type":"Point","coordinates":[37.358540863859,55.8461961442974]}},{"global_id":637541824,"Latitude_WGS84":"55.8525310000000000","ID":"00119446","Name":"Кофейня","IsNetObject":"нет","TypeObject":"кафетерий","AdmArea":"Северо-Западный административный округ","District":"район Митино","Address":"Ангелов переулок, дом 1, корпус 1","PublicPhone":[{"PublicPhone":"(495) 754-00-62"}],"SeatsCount":0,"SocialPrivileges":"нет","Longitude_WGS84":"37.3508360000000000","geoData":{"type":"Point","coordinates":[37.350836,55.852531]}},{"global_id":637541922,"Latitude_WGS84":"55.8443240000000000","ID":"00115008","Name":"Кафетерий","IsNetObject":"нет","TypeObject":"кафетерий","AdmArea":"Северо-Западный административный округ","District":"район Митино","Address":"Пятницкое шоссе, дом 18","PublicPhone":[{"PublicPhone":"(495) 794-45-50"}],"SeatsCount":0,"SocialPrivileges":"нет","Longitude_WGS84":"37.3836420000000000","geoData":{"type":"Point","coordinates":[37.383642,55.844324]}},{"global_id":637542071,"Latitude_WGS84":"55.7907692325653100","ID":"00125013","Name":"Coffee Shake","IsNetObject":"нет","TypeObject":"кафетерий","AdmArea":"Северный административный округ","District":"район Беговой","Address":"город Москва, Ленинградский проспект, дом 37А, строение 32","PublicPhone":[{"PublicPhone":"(968) 384-38-28"}],"SeatsCount":3,"SocialPrivileges":"нет","Longitude_WGS84":"37.5524583167570110","geoData":{"type":"Point","coordinates":[37.55245831675701,55.79076923256531]}},{"global_id":637542079,"Latitude_WGS84":"55.7659423566916960","ID":"00141726","Name":"Джеффрис кофе","IsNetObject":"нет","TypeObject":"кафетерий","AdmArea":"Центральный административный округ","District":"Тверской район","Address":"город Москва, улица Большая Дмитровка, дом 23, строение 1","PublicPhone":[{"PublicPhone":"(963) 607-05-19"}],"SeatsCount":0,"SocialPrivileges":"нет","Longitude_WGS84":"37.6096962926647290","geoData":{"type":"Point","coordinates":[37.60969629266473,55.765942356691696]}},{"global_id":637542117,"Latitude_WGS84":"55.7864540095512280","ID":"00143102","Name":"Бодрый День","IsNetObject":"нет","TypeObject":"кафетерий","AdmArea":"Северный административный округ","District":"район Беговой","Address":"город Москва, улица Правды, дом 24, строение 17","PublicPhone":[{"PublicPhone":"(903) 540-42-14"}],"SeatsCount":0,"SocialPrivileges":"нет","Longitude_WGS84":"37.5832933405899610","geoData":{"type":"Point","coordinates":[37.58329334058996,55.78645400955123]}},{"global_id":637542337,"Latitude_WGS84":"55.8670680354881380","ID":"00133170","Name":"Суши-шоп","IsNetObject":"нет","TypeObject":"кафетерий","AdmArea":"Северный административный округ","District":"район Ховрино","Address":"город Москва, Петрозаводская улица, дом 24Б","PublicPhone":[{"PublicPhone":"(495) 451-61-07"}],"SeatsCount":1,"SocialPrivileges":"нет","Longitude_WGS84":"37.4937620530462890","geoData":{"type":"Point","coordinates":[37.49376205304629,55.86706803548814]}},{"global_id":637542364,"Latitude_WGS84":"55.8496488946359760","ID":"00155152","Name":"Вкусноежка","IsNetObject":"нет","TypeObject":"кафетерий","AdmArea":"Северный административный округ","District":"Головинский район","Address":"город Москва, Кронштадтский бульвар, дом 37Б, строение 2","PublicPhone":[{"PublicPhone":"нет телефона"}],"SeatsCount":0,"SocialPrivileges":"нет","Longitude_WGS84":"37.5061637176706600","geoData":{"type":"Point","coordinates":[37.50616371767066,55.849648894635976]}},{"global_id":637542512,"Latitude_WGS84":"55.7833429255580380","ID":"00127019","Name":"Кофе с собой","IsNetObject":"да","OperatingCompany":"Кофе с собой","TypeObject":"кафетерий","AdmArea":"Северный административный округ","District":"район Беговой","Address":"город Москва, Ленинградский проспект, дом 31А, строение 1","PublicPhone":[{"PublicPhone":"(903) 219-59-47"}],"SeatsCount":2,"SocialPrivileges":"нет","Longitude_WGS84":"37.5608032185032460","geoData":{"type":"Point","coordinates":[37.560803218503246,55.78334292555804]}},{"global_id":637542559,"Latitude_WGS84":"55.8552028580493030","ID":"00086250","Name":"Шоколадница","IsNetObject":"да","OperatingCompany":"Шоколадница","TypeObject":"кафетерий","AdmArea":"Северный административный округ","District":"район Левобережный","Address":"город Москва, Фестивальная улица, дом 2Б","PublicPhone":[{"PublicPhone":"(800) 100-33-60"}],"SeatsCount":35,"SocialPrivileges":"нет","Longitude_WGS84":"37.4782360387245750","geoData":{"type":"Point","coordinates":[37.478236038724575,55.8552028580493]}},{"global_id":637542842,"Latitude_WGS84":"55.9976980000000000","ID":"00149272","Name":"Кафетерий Делисью","IsNetObject":"нет","TypeObject":"кафетерий","AdmArea":"Зеленоградский административный округ","District":"район Савёлки","Address":"город Зеленоград, корпус 514, строение 2","PublicPhone":[{"PublicPhone":"(916) 693-84-38"}],"SeatsCount":20,"SocialPrivileges":"нет","Longitude_WGS84":"37.2366950000000000","geoData":{"type":"Point","coordinates":[37.236695,55.997698]}},{"global_id":637542853,"Latitude_WGS84":"55.9708139999999970","ID":"000080461","Name":"Кафетерий","IsNetObject":"нет","TypeObject":"кафетерий","AdmArea":"Зеленоградский административный округ","District":"район Крюково","Address":"город Зеленоград, корпус 1627","PublicPhone":[{"PublicPhone":"нет телефона"}],"SeatsCount":6,"SocialPrivileges":"нет","Longitude_WGS84":"37.1522319999999980","geoData":{"type":"Point","coordinates":[37.152232,55.970814]}},{"global_id":637542866,"Latitude_WGS84":"56.0150806232939760","ID":"000020198","Name":"ПЕТРОЛ КОМПЛЕКС ЭКВИПМЕНТ КОМПАНИ","IsNetObject":"нет","TypeObject":"кафетерий","AdmArea":"Зеленоградский административный округ","District":"район Матушкино","Address":"Проезд N 4801, дом 3, строение 1","PublicPhone":[{"PublicPhone":"(499) 735-05-39"}],"SeatsCount":12,"SocialPrivileges":"нет","Longitude_WGS84":"37.2036230564117400","geoData":{"type":"Point","coordinates":[37.20362305641174,56.015080623293976]}},{"global_id":637542882,"Latitude_WGS84":"55.9801790000000000","ID":"00154802","Name":"Ретро-пекарня","IsNetObject":"нет","TypeObject":"кафетерий","AdmArea":"Зеленоградский административный округ","District":"район Крюково","Address":"Новокрюковская улица, дом 9","PublicPhone":[{"PublicPhone":"(916) 387-00-33"}],"SeatsCount":5,"SocialPrivileges":"нет","Longitude_WGS84":"37.1719370000000000","geoData":{"type":"Point","coordinates":[37.171937,55.980179]}},{"global_id":637542907,"Latitude_WGS84":"55.9765799999999980","ID":"000084015","Name":"Кафетерий","IsNetObject":"нет","TypeObject":"кафетерий","AdmArea":"Зеленоградский административный округ","District":"район Крюково","Address":"город Зеленоград, корпус 1637","PublicPhone":[{"PublicPhone":"(499) 733-11-70"}],"SeatsCount":6,"SocialPrivileges":"нет","Longitude_WGS84":"37.1576740000000000","geoData":{"type":"Point","coordinates":[37.157674,55.97658]}},{"global_id":637542917,"Latitude_WGS84":"55.9910980000000000","ID":"00149363","Name":"Еда обитания","IsNetObject":"нет","TypeObject":"кафетерий","AdmArea":"Зеленоградский административный округ","District":"район Савёлки","Address":"Савёлкинский проезд, дом 4","PublicPhone":[{"PublicPhone":"(925) 072-61-12"}],"SeatsCount":0,"SocialPrivileges":"нет","Longitude_WGS84":"37.2171660000000000","geoData":{"type":"Point","coordinates":[37.217166,55.991098]}},{"global_id":637542921,"Latitude_WGS84":"55.9789277140753750","ID":"000083911","Name":"Мордвинов (соки в ЗТК)","IsNetObject":"нет","TypeObject":"кафетерий","AdmArea":"Зеленоградский административный округ","District":"район Крюково","Address":"Привокзальная площадь, дом 1","PublicPhone":[{"PublicPhone":"(499) 733-25-81"}],"SeatsCount":2,"SocialPrivileges":"нет","Longitude_WGS84":"37.1715755194618040","geoData":{"type":"Point","coordinates":[37.171575519461804,55.978927714075375]}},{"global_id":637542923,"Latitude_WGS84":"55.9789277140753750","ID":"00110597","Name":"Кафетерий (в ЗТК)","IsNetObject":"нет","TypeObject":"кафетерий","AdmArea":"Зеленоградский административный округ","District":"район Крюково","Address":"Привокзальная площадь, дом 1","PublicPhone":[{"PublicPhone":"нет телефона"}],"SeatsCount":3,"SocialPrivileges":"нет","Longitude_WGS84":"37.1715755194618040","geoData":{"type":"Point","coordinates":[37.171575519461804,55.978927714075375]}},{"global_id":637542975,"Latitude_WGS84":"55.9814666481211000","ID":"000070127","Name":"Кафе при автосервисе","IsNetObject":"нет","TypeObject":"кафетерий","AdmArea":"Зеленоградский административный округ","District":"район Савёлки","Address":"г. Зеленоград, Сосновая аллея, дом 17, строение 1","PublicPhone":[{"PublicPhone":"(499) 734-99-33"}],"SeatsCount":12,"SocialPrivileges":"нет","Longitude_WGS84":"37.2522689775640000","geoData":{"type":"Point","coordinates":[37.252268977564,55.9814666481211]}},{"global_id":637542984,"Latitude_WGS84":"55.9836956705338000","ID":"00105566","Name":"Кафе «Лайк»","IsNetObject":"нет","TypeObject":"кафетерий","AdmArea":"Зеленоградский административный округ","District":"район Силино","Address":"улица Гоголя, дом 2","PublicPhone":[{"PublicPhone":"(495) 961-28-22"}],"SeatsCount":0,"SocialPrivileges":"нет","Longitude_WGS84":"37.1734909685693000","geoData":{"type":"Point","coordinates":[37.1734909685693,55.9836956705338]}},{"global_id":637543083,"Latitude_WGS84":"55.7084911898634520","ID":"00157048","Name":"Go, Кофе","IsNetObject":"нет","TypeObject":"кафетерий","AdmArea":"Южный административный округ","District":"Даниловский район","Address":"улица Ленинская Слобода, дом 19","PublicPhone":[{"PublicPhone":"(963) 726-42-29"}],"SeatsCount":1,"SocialPrivileges":"нет","Longitude_WGS84":"37.6532875623393580","geoData":{"type":"Point","coordinates":[37.65328756233936,55.70849118986345]}},{"global_id":637543112,"Latitude_WGS84":"55.7079020000000000","ID":"00134503","Name":"Кафе «Лаваца»","IsNetObject":"нет","TypeObject":"кафетерий","AdmArea":"Южный административный округ","District":"Даниловский район","Address":"улица Мастеркова, дом 6","PublicPhone":[{"PublicPhone":"нет телефона"}],"SeatsCount":12,"SocialPrivileges":"нет","Longitude_WGS84":"37.6567840000000000","geoData":{"type":"Point","coordinates":[37.656784,55.707902]}},{"global_id":637544986,"Latitude_WGS84":"55.7263138844907640","ID":"00149347","Name":"Кофетерий «Мир»","IsNetObject":"нет","TypeObject":"кафетерий","AdmArea":"Южный административный округ","District":"Даниловский район","Address":"1-й Кожевнический переулок, дом 10, строение 2","PublicPhone":[{"PublicPhone":"нет телефона"}],"SeatsCount":6,"SocialPrivileges":"нет","Longitude_WGS84":"37.6467776391203660","geoData":{"type":"Point","coordinates":[37.646777639120366,55.726313884490764]}},{"global_id":637545225,"Latitude_WGS84":"55.7221656435277310","ID":"00141483","Name":"Кафетерий «Кухня. Всегда готово»","IsNetObject":"нет","TypeObject":"кафетерий","AdmArea":"Южный административный округ","District":"Даниловский район","Address":"Дербеневская набережная, дом 7, строение 22","PublicPhone":[{"PublicPhone":"(916) 650-04-53"}],"SeatsCount":0,"SocialPrivileges":"нет","Longitude_WGS84":"37.6515360472007640","geoData":{"type":"Point","coordinates":[37.651536047200764,55.72216564352773]}},{"global_id":637546047,"Latitude_WGS84":"55.7062690185961880","ID":"00149351","Name":"Кафетерий в автосалоне Вольво на Тульской","IsNetObject":"нет","TypeObject":"кафетерий","AdmArea":"Южный административный округ","District":"Даниловский район","Address":"Холодильный переулок, дом 6","PublicPhone":[{"PublicPhone":"нет телефона"}],"SeatsCount":12,"SocialPrivileges":"нет","Longitude_WGS84":"37.6238855109239840","geoData":{"type":"Point","coordinates":[37.623885510923984,55.70626901859619]}},{"global_id":637547941,"Latitude_WGS84":"55.7086983559433410","ID":"000025373","Name":"PEOPLE-CAFE","IsNetObject":"нет","TypeObject":"кафетерий","AdmArea":"Южный административный округ","District":"Даниловский район","Address":"Большая Тульская улица, дом 13","PublicPhone":[{"PublicPhone":"(495) 544-44-74"}],"SeatsCount":20,"SocialPrivileges":"нет","Longitude_WGS84":"37.6220674461695450","geoData":{"type":"Point","coordinates":[37.622067446169545,55.70869835594334]}},{"global_id":637548058,"Latitude_WGS84":"55.7100997117660130","ID":"00146790","Name":"Кофетерий «Кондитерский дом Александра Селезнева»","IsNetObject":"нет","TypeObject":"кафетерий","AdmArea":"Южный административный округ","District":"Даниловский район","Address":"Большая Тульская улица, дом 11","PublicPhone":[{"PublicPhone":"(495) 980-97-87"}],"SeatsCount":8,"SocialPrivileges":"нет","Longitude_WGS84":"37.6238877771484470","geoData":{"type":"Point","coordinates":[37.62388777714845,55.71009971176601]}},{"global_id":637548060,"Latitude_WGS84":"55.7100997117660130","ID":"00151160","Name":"СтарХит Кафе","IsNetObject":"нет","TypeObject":"кафетерий","AdmArea":"Южный административный округ","District":"Даниловский район","Address":"Большая Тульская улица, дом 11","PublicPhone":[{"PublicPhone":"(968) 458-70-17"}],"SeatsCount":15,"SocialPrivileges":"нет","Longitude_WGS84":"37.6238877771484470","geoData":{"type":"Point","coordinates":[37.62388777714845,55.71009971176601]}},{"global_id":637548217,"Latitude_WGS84":"55.6526832015898800","ID":"00131379","Name":"Плюшка\u0026Ватрушка","IsNetObject":"нет","TypeObject":"кафетерий","AdmArea":"Южный административный округ","District":"район Москворечье-Сабурово","Address":"Каширское шоссе, дом 26","PublicPhone":[{"PublicPhone":"(968) 570-54-94"}],"SeatsCount":21,"SocialPrivileges":"нет","Longitude_WGS84":"37.6464953007169290","geoData":{"type":"Point","coordinates":[37.64649530071693,55.65268320158988]}},{"global_id":637548276,"Latitude_WGS84":"55.6134727648911350","ID":"00132754","Name":"FRESCOFFEE","IsNetObject":"нет","TypeObject":"кафетерий","AdmArea":"Южный административный округ","District":"район Чертаново Центральное","Address":"Кировоградская улица, дом 13А","PublicPhone":[{"PublicPhone":"(985) 188-24-23"}],"SeatsCount":8,"SocialPrivileges":"нет","Longitude_WGS84":"37.6062274768494970","geoData":{"type":"Point","coordinates":[37.6062274768495,55.613472764891135]}},{"global_id":637548316,"Latitude_WGS84":"55.7288811851611290","ID":"00153064","Name":"Правда Кофе","IsNetObject":"нет","TypeObject":"кафетерий","AdmArea":"Южный административный округ","District":"Даниловский район","Address":"Кожевническая улица, дом 14, корпус 1","PublicPhone":[{"PublicPhone":"нет телефона"}],"SeatsCount":0,"SocialPrivileges":"нет","Longitude_WGS84":"37.6469579421493350","geoData":{"type":"Point","coordinates":[37.646957942149335,55.72888118516113]}},{"global_id":637548365,"Latitude_WGS84":"55.7047264935717980","ID":"00149506","Name":"Бар «Фора» (Букмекерская контора)","IsNetObject":"нет","TypeObject":"кафетерий","AdmArea":"Южный административный округ","District":"Даниловский район","Address":"Автозаводская улица, дом 17","PublicPhone":[{"PublicPhone":"нет телефона"}],"SeatsCount":0,"SocialPrivileges":"нет","Longitude_WGS84":"37.6543176442669960","geoData":{"type":"Point","coordinates":[37.654317644266996,55.7047264935718]}},{"global_id":637548369,"Latitude_WGS84":"55.6993563707085570","ID":"000071453","Name":"Кафетерий «Кулинарная лавка братьев Караваевых»","IsNetObject":"нет","TypeObject":"кафетерий","AdmArea":"Южный административный округ","District":"Донской район","Address":"Варшавское шоссе, дом 9, строение 1Б","PublicPhone":[{"PublicPhone":"(495) 967-67-94"}],"SeatsCount":30,"SocialPrivileges":"нет","Longitude_WGS84":"37.6252567425434710","geoData":{"type":"Point","coordinates":[37.62525674254347,55.69935637070856]}},{"global_id":637548635,"Latitude_WGS84":"55.7801290323576570","ID":"000021852","Name":"ЧАЙНВОРД","IsNetObject":"нет","TypeObject":"кафетерий","AdmArea":"Центральный административный округ","District":"Тверской район","Address":"город Москва, Новослободская улица, дом 4","PublicPhone":[{"PublicPhone":"(499) 973-59-10"}],"SeatsCount":18,"SocialPrivileges":"нет","Longitude_WGS84":"37.6017212829693430","geoData":{"type":"Point","coordinates":[37.60172128296934,55.78012903235766]}},{"global_id":637548898,"Latitude_WGS84":"55.7789213558156480","ID":"000080569","Name":"Кулинарная лавка братьев Караваевых","IsNetObject":"да","OperatingCompany":"Братья Караваевы","TypeObject":"кафетерий","AdmArea":"Центральный административный округ","District":"Тверской район","Address":"город Москва, Весковский переулок, дом 7","PublicPhone":[{"PublicPhone":"(499) 973-08-73"}],"SeatsCount":40,"SocialPrivileges":"нет","Longitude_WGS84":"37.6002460813935430","geoData":{"type":"Point","coordinates":[37.60024608139354,55.77892135581565]}},{"global_id":637549451,"Latitude_WGS84":"55.7745692651987640","ID":"00157583","Name":"АВ-Дейли","IsNetObject":"да","OperatingCompany":"Азбука Вкуса","TypeObject":"кафетерий","AdmArea":"Центральный административный округ","District":"Тверской район","Address":"город Москва, 1-я Тверская-Ямская улица, дом 21","PublicPhone":[{"PublicPhone":"(495) 504-34-78"}],"SeatsCount":7,"SocialPrivileges":"нет","Longitude_WGS84":"37.5871228730106710","geoData":{"type":"Point","coordinates":[37.58712287301067,55.774569265198764]}},{"global_id":637549498,"Latitude_WGS84":"55.7225572581691400","ID":"00144591","Name":"Кафетерий КОФЕМАУС","IsNetObject":"нет","TypeObject":"кафетерий","AdmArea":"Центральный административный округ","District":"район Замоскворечье","Address":"город Москва, 1-й Щипковский переулок, дом 5","PublicPhone":[{"PublicPhone":"(903) 123-88-90"}],"SeatsCount":0,"SocialPrivileges":"нет","Longitude_WGS84":"37.6319942831362650","geoData":{"type":"Point","coordinates":[37.631994283136265,55.72255725816914]}},{"global_id":637549660,"Latitude_WGS84":"55.7790307978749240","ID":"000069298","Name":"Папа Джонс","IsNetObject":"да","OperatingCompany":"Папа Джонс","TypeObject":"кафетерий","AdmArea":"Центральный административный округ","District":"Мещанский район","Address":"улица Щепкина, дом 31","PublicPhone":[{"PublicPhone":"(495) 663-98-17"}],"SeatsCount":10,"SocialPrivileges":"нет","Longitude_WGS84":"37.6286160057518940","geoData":{"type":"Point","coordinates":[37.628616005751894,55.779030797874924]}},{"global_id":637549693,"Latitude_WGS84":"55.7633574236895630","ID":"00089422","Name":"Кафе «Кофе»","IsNetObject":"нет","TypeObject":"кафетерий","AdmArea":"Центральный административный округ","District":"Пресненский район","Address":"город Москва, улица Сергея Макеева, дом 13","PublicPhone":[{"PublicPhone":"(495) 926-70-84"}],"SeatsCount":0,"SocialPrivileges":"нет","Longitude_WGS84":"37.5512167021218700","geoData":{"type":"Point","coordinates":[37.55121670212187,55.76335742368956]}},{"global_id":637549754,"Latitude_WGS84":"55.7544030000000000","ID":"00096642","Name":"Кафе «Кафетерий»","IsNetObject":"нет","TypeObject":"кафетерий","AdmArea":"Центральный административный округ","District":"Пресненский район","Address":"город Москва, Краснопресненская набережная, дом 12","PublicPhone":[{"PublicPhone":"(499) 281-91-75"}],"SeatsCount":50,"SocialPrivileges":"нет","Longitude_WGS84":"37.5561929990000000","geoData":{"type":"Point","coordinates":[37.556192999,55.754403]}},{"global_id":637549987,"Latitude_WGS84":"55.7490409652179510","ID":"00147109","Name":"Неспрессо","IsNetObject":"нет","TypeObject":"кафетерий","AdmArea":"Центральный административный округ","District":"Пресненский район","Address":"город Москва, Пресненская набережная, дом 2","PublicPhone":[{"PublicPhone":"нет телефона"}],"SeatsCount":0,"SocialPrivileges":"нет","Longitude_WGS84":"37.5394705291040580","geoData":{"type":"Point","coordinates":[37.53947052910406,55.74904096521795]}},{"global_id":637549994,"Latitude_WGS84":"55.7490409652179510","ID":"00147113","Name":"GREENSTORE","IsNetObject":"нет","TypeObject":"кафетерий","AdmArea":"Центральный административный округ","District":"Пресненский район","Address":"город Москва, Пресненская набережная, дом 2","PublicPhone":[{"PublicPhone":"нет телефона"}],"SeatsCount":0,"SocialPrivileges":"нет","Longitude_WGS84":"37.5394705291040580","geoData":{"type":"Point","coordinates":[37.53947052910406,55.74904096521795]}},{"global_id":637550244,"Latitude_WGS84":"55.4729441861381570","ID":"000079669","Name":"Кафетерий","IsNetObject":"нет","TypeObject":"кафетерий","AdmArea":"Троицкий административный округ","District":"поселение Троицк","Address":"г. Троицк, город Троицк, Юбилейная улица, дом 3","PublicPhone":[{"PublicPhone":"(495) 851-01-54"}],"SeatsCount":24,"SocialPrivileges":"нет","Longitude_WGS84":"37.3011557467543610","geoData":{"type":"Point","coordinates":[37.30115574675436,55.47294418613816]}},{"global_id":637550249,"Latitude_WGS84":"55.4928150000000000","ID":"00144868","Name":"Кафетерий","IsNetObject":"нет","TypeObject":"кафетерий","AdmArea":"Троицкий административный округ","District":"поселение Троицк","Address":"г. Троицк, город Троицк, микрорайон \"В\", дом 53","PublicPhone":[{"PublicPhone":"(915) 204-83-66"}],"SeatsCount":4,"SocialPrivileges":"нет","Longitude_WGS84":"37.2964290000000000","geoData":{"type":"Point","coordinates":[37.296429,55.492815]}},{"global_id":637550423,"Latitude_WGS84":"55.4857630000000000","ID":"00156759","Name":"Кафетерий","IsNetObject":"нет","TypeObject":"кафетерий","AdmArea":"Троицкий административный округ","District":"поселение Троицк","Address":"г. Троицк, город Троицк, микрорайон \"В\", дом 37","PublicPhone":[{"PublicPhone":"нет телефона"}],"SeatsCount":10,"SocialPrivileges":"нет","Longitude_WGS84":"37.3066540000000000","geoData":{"type":"Point","coordinates":[37.306654,55.485763]}},{"global_id":637552651,"Latitude_WGS84":"55.8899094763989700","ID":"00135343","Name":"Пропиком","IsNetObject":"нет","TypeObject":"кафетерий","AdmArea":"Северо-Восточный административный округ","District":"район Бибирево","Address":"улица Пришвина, дом 3Г","PublicPhone":[{"PublicPhone":"(495) 995-24-27"}],"SeatsCount":6,"SocialPrivileges":"нет","Longitude_WGS84":"37.5941821622029910","geoData":{"type":"Point","coordinates":[37.59418216220299,55.88990947639897]}}]